[{"name":"KFC","type":"Italijanski restoran","status":"OPEN","logo":"./images/restaurants/KFC.jpg","location":{"latitude":45.17,"longitude":18.65,"address":{"street":"Bulevar oslobodjenja 45","city":"Novi Sad","postalcode":21000,"country":"Srbija"}},"isDeleted":false,"grade":3.2,"products":[]},{"name":"Tortilla Casa","type":"Meksicki restoran","status":"OPEN","logo":"./images/restaurants/TortillaCasa.jpg","location":{"latitude":45.19,"longitude":18.73,"address":{"street":"Bulevar oslobodjenja 125","city":"Novi Sad","postalcode":21000,"country":"Srbija"}},"isDeleted":false,"grade":3.7,"products":[]},{"name":"Foody","type":"Italijanski restoran","status":"CLOSED","logo":"./images/restaurants/Foody.jpg","location":{"latitude":45.23,"longitude":18.96,"address":{"street":"Promenada","city":"Novi Sad","postalcode":21000,"country":"Srbija"}},"isDeleted":false,"grade":4.2,"products":[]},{"name":"Gyros Master","type":"Fastfood","status":"OPEN","logo":"./images/restaurants/GyrosMaster.jpg","location":{"latitude":45.47,"longitude":25.25,"address":{"street":"Sutjeska","city":"Novi Sad","postalcode":21000,"country":"Srbija"}},"isDeleted":false,"grade":4.7,"products":[]},{"name":"Walter","type":"Rostilj","status":"OPEN","logo":"./images/restaurants/Walter.jpg","location":{"latitude":45.26,"longitude":19.84,"address":{"street":"Pavla Papa","city":"Novi Sad City","postalcode":21000,"country":"Serbia"}},"isDeleted":false,"grade":0.0,"products":[]},{"name":"Minuta","type":"Fastfood","status":"CLOSED","logo":"./images/restaurants/Minuta.jpg","location":{"latitude":45.25,"longitude":19.84,"address":{"street":"Petra Drapsina","city":"Novi Sad City","postalcode":21101,"country":"Serbia"}},"isDeleted":false,"grade":0.0,"products":[]}]
